{
"type": "FeatureCollection",
"features": [
{ "type": "Feature", "properties": { "OBJECTID": 2364, "cat1": "Arts and Recreation", "cat2": "Cultural and Performing Arts Centers", "Name": "Barnsdall Park", "addrln1": "4800 Hollywood Blvd", "city": "Los Angeles", "post_id": 2636, "zip": "90027", "latitude": 34.10152795, "longitude": -118.2943873, "POINT_X": 6472549.4950692197, "POINT_Y": 1859458.8627235601 }, "geometry": { "type": "Point", "coordinates": [ -118.294387356576607, 34.101527916881828 ] } },
{ "type": "Feature", "properties": { "OBJECTID": 2478, "cat1": "Arts and Recreation", "cat2": "Cultural and Performing Arts Centers", "Name": "Arts Council For Long Beach", "addrln1": "350 Elm Ave", "city": "Long Beach", "post_id": 2737, "zip": "90802", "latitude": 33.77144994, "longitude": -118.1874168, "POINT_X": 6504709.0108025502, "POINT_Y": 1739258.5781902201 }, "geometry": { "type": "Point", "coordinates": [ -118.187416856205076, 33.771449907229844 ] } },
{ "type": "Feature", "properties": { "OBJECTID": 3177, "cat1": "Arts and Recreation", "cat2": "Cultural and Performing Arts Centers", "Name": "Music Center", "addrln1": "135 N. Grand Ave.", "city": "Los Angeles", "post_id": 3304, "zip": "90012", "latitude": 34.05666336, "longitude": -118.2483515, "POINT_X": 6486445.6936547197, "POINT_Y": 1843094.21041356 }, "geometry": { "type": "Point", "coordinates": [ -118.248351556508467, 34.056663327329282 ] } },
{ "type": "Feature", "properties": { "OBJECTID": 13036, "cat1": "Arts and Recreation", "cat2": "Cultural and Performing Arts Centers", "Name": "Hollywood Bowl Performing Arts Complex", "addrln1": "2301 N. Highland Ave.", "city": "Los Angeles", "post_id": 13514, "zip": "90068", "latitude": 34.11125656, "longitude": -118.3364365, "POINT_X": 6459831.6973421397, "POINT_Y": 1863039.20956548 }, "geometry": { "type": "Point", "coordinates": [ -118.336436556227028, 34.111256527132312 ] } },
{ "type": "Feature", "properties": { "OBJECTID": 22276, "cat1": "Arts and Recreation", "cat2": "Cultural and Performing Arts Centers", "Name": "Alhambra Renaissance Entertainment Center", "addrln1": null, "city": null, "post_id": 24540, "zip": null, "latitude": 34.0961111, "longitude": -118.1266667, "POINT_X": 6523321.5736429701, "POINT_Y": 1857381.22908357 }, "geometry": { "type": "Point", "coordinates": [ -118.126666756589586, 34.096111067264843 ] } },
{ "type": "Feature", "properties": { "OBJECTID": 54297, "cat1": "Arts and Recreation", "cat2": "Cultural and Performing Arts Centers", "Name": "Theatre Of Hearts / Youth First Artist In Residence Program", "addrln1": "672 S. La Fayette Park Pl.", "city": "Los Angeles", "post_id": 56803, "zip": "90057", "latitude": 34.060584, "longitude": -118.283588, "POINT_X": 6475776.7566593001, "POINT_Y": 1844549.24162422 }, "geometry": { "type": "Point", "coordinates": [ -118.283588055804117, 34.060583966714034 ] } },
{ "type": "Feature", "properties": { "OBJECTID": 54948, "cat1": "Arts and Recreation", "cat2": "Cultural and Performing Arts Centers", "Name": "Musicares Foundation", "addrln1": "3030 Olympic Blvd.", "city": "Santa Monica", "post_id": 57185, "zip": "90404", "latitude": 34.030675, "longitude": -118.461896, "POINT_X": 6421720.8447582303, "POINT_Y": 1833865.1517719801 }, "geometry": { "type": "Point", "coordinates": [ -118.461896055872373, 34.030674966478387 ] } },
{ "type": "Feature", "properties": { "OBJECTID": 55039, "cat1": "Arts and Recreation", "cat2": "Cultural and Performing Arts Centers", "Name": "Venice Arts", "addrln1": "610 California Ave.", "city": "Venice", "post_id": 57256, "zip": "90291", "latitude": 33.991386, "longitude": -118.465397, "POINT_X": 6420593.8876945497, "POINT_Y": 1819572.13442631 }, "geometry": { "type": "Point", "coordinates": [ -118.465397055576986, 33.991385966396287 ] } },
{ "type": "Feature", "properties": { "OBJECTID": 55591, "cat1": "Arts and Recreation", "cat2": "Cultural and Performing Arts Centers", "Name": "Assistance League Of Southern California - Theatre For Children", "addrln1": "1367 N. St. Andrews Pl.", "city": "Los Angeles", "post_id": 57623, "zip": "90028", "latitude": 34.096409, "longitude": -118.311071, "POINT_X": 6467493.0347097199, "POINT_Y": 1857611.2007364801 }, "geometry": { "type": "Point", "coordinates": [ -118.311071056081246, 34.096408966566067 ] } },
{ "type": "Feature", "properties": { "OBJECTID": 56460, "cat1": "Arts and Recreation", "cat2": "Cultural and Performing Arts Centers", "Name": "Inside Out Community Arts", "addrln1": "2210 Lincoln Blvd.", "city": "Venice", "post_id": 58387, "zip": "90291", "latitude": 33.995028, "longitude": -118.454429, "POINT_X": 6423924.6018336397, "POINT_Y": 1820882.3079870599 }, "geometry": { "type": "Point", "coordinates": [ -118.454429055696309, 33.995027966834286 ] } },
{ "type": "Feature", "properties": { "OBJECTID": 56863, "cat1": "Arts and Recreation", "cat2": "Cultural and Performing Arts Centers", "Name": "Armory Center For The Arts", "addrln1": "145 N. Raymond Ave.", "city": "Pasadena", "post_id": 58654, "zip": "91103", "latitude": 34.148364, "longitude": -118.149336, "POINT_X": 6516486.6247144602, "POINT_Y": 1876406.42758164 }, "geometry": { "type": "Point", "coordinates": [ -118.149336056288774, 34.148363967162346 ] } },
{ "type": "Feature", "properties": { "OBJECTID": 56865, "cat1": "Arts and Recreation", "cat2": "Cultural and Performing Arts Centers", "Name": "Angels Gate Cultural Center", "addrln1": "3601 S. Gaffey St.", "city": "San Pedro", "post_id": 58655, "zip": "90731", "latitude": 33.711542, "longitude": -118.292987, "POINT_X": 6472559.7352062203, "POINT_Y": 1717533.0340429801 }, "geometry": { "type": "Point", "coordinates": [ -118.292987056111016, 33.711541967421809 ] } },
{ "type": "Feature", "properties": { "OBJECTID": 56867, "cat1": "Arts and Recreation", "cat2": "Cultural and Performing Arts Centers", "Name": "Celtic Arts Center", "addrln1": "10943 Camarillo St.", "city": "North Hollywood", "post_id": 58656, "zip": "91602", "latitude": 34.157786, "longitude": -118.369551, "POINT_X": 6449870.3028948903, "POINT_Y": 1880007.2143433101 }, "geometry": { "type": "Point", "coordinates": [ -118.369551056721221, 34.157785966347717 ] } },
{ "type": "Feature", "properties": { "OBJECTID": 56868, "cat1": "Arts and Recreation", "cat2": "Cultural and Performing Arts Centers", "Name": "Torrance Cultural Arts Center", "addrln1": "3330 Civic Center Dr.", "city": "Torrance", "post_id": 58657, "zip": "90503", "latitude": 33.839921, "longitude": -118.344099, "POINT_X": 6457174.2564628003, "POINT_Y": 1764302.8095977299 }, "geometry": { "type": "Point", "coordinates": [ -118.34409905599648, 33.839920967403543 ] } },
{ "type": "Feature", "properties": { "OBJECTID": 57301, "cat1": "Arts and Recreation", "cat2": "Cultural and Performing Arts Centers", "Name": "Los Angeles County Arts Commission", "addrln1": "1055 Wilshire Blvd.", "city": "Los Angeles", "post_id": 58966, "zip": "90017", "latitude": 34.052301, "longitude": -118.262774, "POINT_X": 6482073.0380299697, "POINT_Y": 1841517.7749181399 }, "geometry": { "type": "Point", "coordinates": [ -118.262774056480438, 34.052300967009053 ] } },
{ "type": "Feature", "properties": { "OBJECTID": 57428, "cat1": "Arts and Recreation", "cat2": "Cultural and Performing Arts Centers", "Name": "City Of Glendale Community Services And Parks Department", "addrln1": "613 E Broadway", "city": "Glendale", "post_id": 59068, "zip": "91206", "latitude": 34.14639651, "longitude": -118.2485908, "POINT_X": 6486453.97054106, "POINT_Y": 1875749.8659026499 }, "geometry": { "type": "Point", "coordinates": [ -118.24859085606036, 34.146396477014214 ] } },
{ "type": "Feature", "properties": { "OBJECTID": 58546, "cat1": "Arts and Recreation", "cat2": "Cultural and Performing Arts Centers", "Name": "Social And Public Art Resource Center", "addrln1": "685 Venice Blvd.", "city": "Venice", "post_id": 59981, "zip": "90291", "latitude": 33.990766, "longitude": -118.459921, "POINT_X": 6422252.7912008902, "POINT_Y": 1819338.86586398 }, "geometry": { "type": "Point", "coordinates": [ -118.459921055570533, 33.990765967071709 ] } },
{ "type": "Feature", "properties": { "OBJECTID": 58606, "cat1": "Arts and Recreation", "cat2": "Cultural and Performing Arts Centers", "Name": "LACMA (Los Angeles County Museum Of Art)", "addrln1": "5905 Wilshire Blvd.", "city": "Los Angeles", "post_id": 60028, "zip": "90036", "latitude": 34.06340072, "longitude": -118.35915109, "POINT_X": 6452893.8404829698, "POINT_Y": 1845647.46514957 }, "geometry": { "type": "Point", "coordinates": [ -118.359151146550289, 34.06340068665552 ] } },
{ "type": "Feature", "properties": { "OBJECTID": 58619, "cat1": "Arts and Recreation", "cat2": "Cultural and Performing Arts Centers", "Name": "Hammer Museum", "addrln1": "10899 Wilshire Blvd.", "city": "Los Angeles", "post_id": 60037, "zip": "90024", "latitude": 34.058939, "longitude": -118.4439, "POINT_X": 6427218.8249039603, "POINT_Y": 1844126.3071026499 }, "geometry": { "type": "Point", "coordinates": [ -118.443900056121052, 34.058938966325037 ] } },
{ "type": "Feature", "properties": { "OBJECTID": 58911, "cat1": "Arts and Recreation", "cat2": "Cultural and Performing Arts Centers", "Name": "Center Theatre Group", "addrln1": "135 N. Grand Ave.", "city": "Los Angeles", "post_id": 60271, "zip": "90012", "latitude": 34.056664, "longitude": -118.248353, "POINT_X": 6486445.2399154799, "POINT_Y": 1843094.4443369801 }, "geometry": { "type": "Point", "coordinates": [ -118.2483530564147, 34.056663967035952 ] } },
{ "type": "Feature", "properties": { "OBJECTID": 59474, "cat1": "Arts and Recreation", "cat2": "Cultural and Performing Arts Centers", "Name": "Colburn School, The", "addrln1": "200 S. Grand Ave.", "city": "Los Angeles", "post_id": 60746, "zip": "90012", "latitude": 34.054367, "longitude": -118.249771, "POINT_X": 6486013.6574453004, "POINT_Y": 1842259.5883951499 }, "geometry": { "type": "Point", "coordinates": [ -118.249771056246104, 34.054366967317335 ] } },
{ "type": "Feature", "properties": { "OBJECTID": 59851, "cat1": "Arts and Recreation", "cat2": "Cultural and Performing Arts Centers", "Name": "Friends Of Mcgroarty Arts Center", "addrln1": "7570 McGroarty Terrace", "city": "Tujunga", "post_id": 61012, "zip": "91042", "latitude": 34.25055, "longitude": -118.297247, "POINT_X": 6471844.1418211302, "POINT_Y": 1913693.0137694799 }, "geometry": { "type": "Point", "coordinates": [ -118.297247056650079, 34.250549966410034 ] } },
{ "type": "Feature", "properties": { "OBJECTID": 59870, "cat1": "Arts and Recreation", "cat2": "Cultural and Performing Arts Centers", "Name": "Korean American Federation Of Los Angeles", "addrln1": "981 S Western Ave", "city": "Los Angeles", "post_id": 61027, "zip": "90006", "latitude": 34.0531457, "longitude": -118.3092743, "POINT_X": 6467988.5452016396, "POINT_Y": 1841865.25617856 }, "geometry": { "type": "Point", "coordinates": [ -118.309274355895411, 34.053145666972803 ] } },
{ "type": "Feature", "properties": { "OBJECTID": 59944, "cat1": "Arts and Recreation", "cat2": "Cultural and Performing Arts Centers", "Name": "African American Unity Center", "addrln1": "944 W. 53rd St.", "city": "Los Angeles", "post_id": 61120, "zip": "90037", "latitude": 33.99402396, "longitude": -118.2907783, "POINT_X": 6473528.8828742197, "POINT_Y": 1820333.0394005601 }, "geometry": { "type": "Point", "coordinates": [ -118.290778356683632, 33.994023926689458 ] } },
{ "type": "Feature", "properties": { "OBJECTID": 61925, "cat1": "Arts and Recreation", "cat2": "Cultural and Performing Arts Centers", "Name": "African American Cultural Center", "addrln1": "3018 W. 48th St.", "city": "Los Angeles", "post_id": 68412, "zip": "90043", "latitude": 33.99983972, "longitude": -118.32648157, "POINT_X": 6462713.3287179796, "POINT_Y": 1822482.7322796399 }, "geometry": { "type": "Point", "coordinates": [ -118.326481625701618, 33.999839687308274 ] } },
{ "type": "Feature", "properties": { "OBJECTID": 61932, "cat1": "Arts and Recreation", "cat2": "Cultural and Performing Arts Centers", "Name": "Citizens & Friends of Trinidad & Tobago,Inc.", "addrln1": "P.O. Box 881806", "city": "Los Angeles", "post_id": 68419, "zip": "90009", "latitude": 33.9454948, "longitude": -118.3844059, "POINT_X": 6445080.8328150501, "POINT_Y": 1802767.6913292301 }, "geometry": { "type": "Point", "coordinates": [ -118.384405956146793, 33.945494766609009 ] } },
{ "type": "Feature", "properties": { "OBJECTID": 64440, "cat1": "Arts and Recreation", "cat2": "Cultural and Performing Arts Centers", "Name": "City Of Pasadena Planning Department", "addrln1": "175 N Garfield Ave", "city": "Pasadena", "post_id": 71172, "zip": "91101", "latitude": 34.14866817, "longitude": -118.1448431, "POINT_X": 6517846.1731764702, "POINT_Y": 1876515.1311043899 }, "geometry": { "type": "Point", "coordinates": [ -118.144843156366804, 34.14866813657224 ] } }
]
}
